{
    "shelves": [
        {
            "id": "A0001",
            "latitude": "44.620982819755056",
            "longitude": "10.926907861841718",
            "location": "CONAD C.C. La Rotonda",
            "product_id": "AA000AC",
            "product_description": "Mozzarelle",
            "qty": 10,
            "camera_ip": "",
            "camera_status": 1,
            "rfid_ip": "",
            "rfid_status": 1,
            "rfid_last_tag": "",
            "rfid_last_time_read": ""
        },
        {
            "id": "A0002",
            "latitude": "44.620982819755056",
            "longitude": "10.926907861841718",
            "location": "CONAD C.C. La Rotonda",
            "product_id": "AA000AE",
            "product_description": "Gorgonzola",
            "qty": 10,
            "camera_ip": "",
            "camera_status": 1,
            "rfid_ip": "",
            "rfid_status": 1,
            "rfid_last_tag": "",
            "rfid_last_time_read": ""
        },
        {
            "id": "A0003",
            "latitude": "44.620982819755056",
            "longitude": "10.926907861841718",
            "location": "CONAD C.C. La Rotonda",
            "product_id": "AA000CD",
            "product_description": "Passata di pomodoro",
            "qty": 0,
            "camera_ip": "",
            "camera_status": 1,
            "rfid_ip": "",
            "rfid_status": 1,
            "rfid_last_tag": "",
            "rfid_last_time_read": ""
        },
        {
            "id": "B0001",
            "latitude": "44.641634823318526",
            "longitude": "10.893172747361206",
            "location": "CONAD CITY",
            "product_id": "AA000AC",
            "product_description": "Mozzarelle",
            "qty": 4,
            "camera_ip": "",
            "camera_status": 1,
            "rfid_ip": "",
            "rfid_status": 1,
            "rfid_last_tag": "",
            "rfid_last_time_read": ""
        },
        {
            "id": "B0002",
            "latitude": "44.641634823318526",
            "longitude": "10.893172747361206",
            "location": "CONAD CITY",
            "product_id": "AA000AD",
            "product_description": "Stracchino",
            "qty": 3,
            "camera_ip": "",
            "camera_status": 1,
            "rfid_ip": "",
            "rfid_status": 1,
            "rfid_last_tag": "",
            "rfid_last_time_read": ""
        },
        {
            "id": "B0003",
            "latitude": "44.641634823318526",
            "longitude": "10.893172747361206",
            "location": "CONAD CITY",
            "product_id": "AA000CD",
            "product_description": "Passata di pomodoro",
            "qty": 3,
            "camera_ip": "",
            "camera_status": 1,
            "rfid_ip": "",
            "rfid_status": 1,
            "rfid_last_tag": "",
            "rfid_last_time_read": ""
        },
        {
            "id": "B0004",
            "latitude": "44.641634823318526",
            "longitude": "10.893172747361206",
            "location": "CONAD CITY",
            "product_id": "AA000AE",
            "product_description": "Gorgonzola",
            "qty": 3,
            "camera_ip": "",
            "camera_status": 1,
            "rfid_ip": "",
            "rfid_status": 1,
            "rfid_last_tag": "",
            "rfid_last_time_read": ""
        },
        {
            "id": "C0001",
            "latitude": "44.63990286240556",
            "longitude": "10.941742422833208",
            "location": "CONAD CITY Aeronautica",
            "product_id": "AA000CD",
            "product_description": "Passata di pomodoro",
            "qty": 3,
            "camera_ip": "",
            "camera_status": 1,
            "rfid_ip": "",
            "rfid_status": 1,
            "rfid_last_tag": "",
            "rfid_last_time_read": ""
        },
        {
            "id": "C0002",
            "latitude": "44.63990286240556",
            "longitude": "10.941742422833208",
            "location": "CONAD CITY Aeronautica",
            "product_id": "AA000AE",
            "product_description": "Gorgonzola",
            "qty": 6,
            "camera_ip": "",
            "camera_status": 1,
            "rfid_ip": "",
            "rfid_status": 1,
            "rfid_last_tag": "",
            "rfid_last_time_read": ""
        },
        {
            "id": "C0003",
            "latitude": "44.63990286240556",
            "longitude": "10.941742422833208",
            "location": "CONAD CITY Aeronautica",
            "product_id": "AA000AD",
            "product_description": "Stracchino",
            "qty": 0,
            "camera_ip": "",
            "camera_status": 1,
            "rfid_ip": "",
            "rfid_status": 1,
            "rfid_last_tag": "",
            "rfid_last_time_read": ""
        },
        {
            "id": "D0001",
            "latitude": "44.64785690589143",
            "longitude": "10.887150759651465",
            "location": "CONAD CITY Polo Leonardo",
            "product_id": "AA000AD",
            "product_description": "Stracchino",
            "qty": 10,
            "camera_ip": "",
            "camera_status": 1,
            "rfid_ip": "",
            "rfid_status": 1,
            "rfid_last_tag": "",
            "rfid_last_time_read": ""
        },
        {
            "id": "E0001",
            "latitude": "44.62548815107367",
            "longitude": "10.946548942335866",
            "location": "CONAD CITY Le torri",
            "product_id": "AA000CD",
            "product_description": "Passata di pomodoro",
            "qty": 7,
            "camera_ip": "",
            "camera_status": 1,
            "rfid_ip": "",
            "rfid_status": 1,
            "rfid_last_tag": "",
            "rfid_last_time_read": ""
        }
    ]
}